[
    {
        "nombre": "Purevolt Madrid",
        "ciudad": "Madrid",
        "direccion": "Calle Mayor, 10",
        "telefono_contacto": "612345678",
        "latitud": 40.4168,
        "longitud": -3.7038
    },
    {
        "nombre": "Purevolt Barcelona",
        "ciudad": "Barcelona",
        "direccion": "Avenida Diagonal, 125",
        "telefono_contacto": "623456789",
        "latitud": 41.3851,
        "longitud": 2.1734
    },
    {
        "nombre": "Purevolt Valencia",
        "ciudad": "Valencia",
        "direccion": "Calle de la Paz, 50",
        "telefono_contacto": "634567890",
        "latitud": 39.4699,
        "longitud": -0.3763
    },
    {
        "nombre": "Purevolt Sevilla",
        "ciudad": "Sevilla",
        "direccion": "Plaza Nueva, 7",
        "telefono_contacto": "645678901",
        "latitud": 37.3891,
        "longitud": -5.9845
    },
    {
        "nombre": "Purevolt Valladolid",
        "ciudad": "Valladolid",
        "direccion": "Paseo Independencia, 23",
        "telefono_contacto": "656789012",
        "latitud": 41.63041,
        "longitud": -4.77319
    }
]
